[{"tipo": "vegan", "nombre": "The Organic Grill", "latitud": 40.7273716, "longitud": -73.98578090000001, "location": {"type": "Point", "coordinates": [-73.98578090000001, 40.7273716]}}, {"tipo": "vegan", "nombre": "Blossom on University", "latitud": 40.7332505, "longitud": -73.993674, "location": {"type": "Point", "coordinates": [-73.993674, 40.7332505]}}, {"tipo": "vegan", "nombre": "Ladybird", "latitud": 40.7266801, "longitud": -73.9845333, "location": {"type": "Point", "coordinates": [-73.9845333, 40.7266801]}}, {"tipo": "vegan", "nombre": "Peacefood", "latitud": 40.7332316, "longitud": -73.9929149, "location": {"type": "Point", "coordinates": [-73.9929149, 40.7332316]}}, {"tipo": "vegan", "nombre": "Avant Garden", "latitud": 40.726112, "longitud": -73.983963, "location": {"type": "Point", "coordinates": [-73.983963, 40.726112]}}, {"tipo": "vegan", "nombre": "Caravan Of Dreams", "latitud": 40.7263767, "longitud": -73.98565239999999, "location": {"type": "Point", "coordinates": [-73.98565239999999, 40.7263767]}}, {"tipo": "vegan", "nombre": "Beyond Sushi", "latitud": 40.73292, "longitud": -73.98588409999999, "location": {"type": "Point", "coordinates": [-73.98588409999999, 40.73292]}}, {"tipo": "vegan", "nombre": "VSPOT Express", "latitud": 40.7291097, "longitud": -73.9892064, "location": {"type": "Point", "coordinates": [-73.9892064, 40.7291097]}}, {"tipo": "vegan", "nombre": "Spicy Moon", "latitud": 40.7266901, "longitud": -73.9872499, "location": {"type": "Point", "coordinates": [-73.9872499, 40.7266901]}}, {"tipo": "vegan", "nombre": "Superiority Burger", "latitud": 40.7274823, "longitud": -73.98348179999999, "location": {"type": "Point", "coordinates": [-73.98348179999999, 40.7274823]}}, {"tipo": "vegan", "nombre": "Go Vegan Cuisine", "latitud": 40.7238424, "longitud": -73.9892241, "location": {"type": "Point", "coordinates": [-73.9892241, 40.7238424]}}, {"tipo": "vegan", "nombre": "Naturees", "latitud": 40.7240784, "longitud": -73.9907415, "location": {"type": "Point", "coordinates": [-73.9907415, 40.7240784]}}, {"tipo": "vegan", "nombre": "SESTINA", "latitud": 40.7261601, "longitud": -73.9897043, "location": {"type": "Point", "coordinates": [-73.9897043, 40.7261601]}}, {"tipo": "vegan", "nombre": "Souen", "latitud": 40.7267246, "longitud": -73.98734809999999, "location": {"type": "Point", "coordinates": [-73.98734809999999, 40.7267246]}}, {"tipo": "vegan", "nombre": "Vex Mex (My Vegan Taco Spot)", "latitud": 40.728991, "longitud": -73.9893159, "location": {"type": "Point", "coordinates": [-73.9893159, 40.728991]}}, {"tipo": "vegan", "nombre": "Spicy Moon Vegan Szechuan", "latitud": 40.7293583, "longitud": -73.9983012, "location": {"type": "Point", "coordinates": [-73.9983012, 40.7293583]}}, {"tipo": "vegan", "nombre": "Ahimsa Garden", "latitud": 40.728489, "longitud": -73.983176, "location": {"type": "Point", "coordinates": [-73.983176, 40.728489]}}, {"tipo": "vegan", "nombre": "abcV", "latitud": 40.7379803, "longitud": -73.98928409999999, "location": {"type": "Point", "coordinates": [-73.98928409999999, 40.7379803]}}, {"tipo": "vegan", "nombre": "Beatnic - SoHo", "latitud": 40.722776, "longitud": -73.99721199999999, "location": {"type": "Point", "coordinates": [-73.99721199999999, 40.722776]}}, {"tipo": "vegan", "nombre": "Delice & Sarrasin", "latitud": 40.7338443, "longitud": -74.0006594, "location": {"type": "Point", "coordinates": [-74.0006594, 40.7338443]}}, {"tipo": "kindergarten", "nombre": "Preschool of the Arts @ Cooper Sq.", "latitud": 40.72833869999999, "longitud": -73.99040699999999, "location": {"type": "Point", "coordinates": [-73.99040699999999, 40.72833869999999]}}, {"tipo": "kindergarten", "nombre": "Grace Church School - JK-8 Campus", "latitud": 40.7318719, "longitud": -73.9905704, "location": {"type": "Point", "coordinates": [-73.9905704, 40.7318719]}}, {"tipo": "kindergarten", "nombre": "Preschool of the Arts @ Gramercy Park", "latitud": 40.7357782, "longitud": -73.9827054, "location": {"type": "Point", "coordinates": [-73.9827054, 40.7357782]}}, {"tipo": "kindergarten", "nombre": "Children's International Workshop", "latitud": 40.7369864, "longitud": -73.99144199999999, "location": {"type": "Point", "coordinates": [-73.99144199999999, 40.7369864]}}, {"tipo": "kindergarten", "nombre": "New Amsterdam School", "latitud": 40.723746, "longitud": -73.98245299999999, "location": {"type": "Point", "coordinates": [-73.98245299999999, 40.723746]}}, {"tipo": "kindergarten", "nombre": "University Plaza Nursery School", "latitud": 40.7267143, "longitud": -73.9985964, "location": {"type": "Point", "coordinates": [-73.9985964, 40.7267143]}}, {"tipo": "kindergarten", "nombre": "Bernstein Pavilion", "latitud": 40.7330742, "longitud": -73.9832456, "location": {"type": "Point", "coordinates": [-73.9832456, 40.7330742]}}, {"tipo": "kindergarten", "nombre": "Public School 19", "latitud": 40.7300229, "longitud": -73.9846141, "location": {"type": "Point", "coordinates": [-73.9846141, 40.7300229]}}, {"tipo": "Starbucks", "nombre": "Starbucks", "latitud": 40.727218, "longitud": -73.995474, "location": {"type": "Point", "coordinates": [-73.995474, 40.727218]}}, {"tipo": "Starbucks", "nombre": "Starbucks", "latitud": 40.733792, "longitud": -73.986584, "location": {"type": "Point", "coordinates": [-73.986584, 40.733792]}}, {"tipo": "Starbucks", "nombre": "Starbucks", "latitud": 40.726837, "longitud": -73.98317, "location": {"type": "Point", "coordinates": [-73.98317, 40.726837]}}, {"tipo": "Starbucks", "nombre": "Starbucks", "latitud": 40.730826, "longitud": -73.98319699999999, "location": {"type": "Point", "coordinates": [-73.98319699999999, 40.730826]}}, {"tipo": "Starbucks", "nombre": "Starbucks", "latitud": 40.730017, "longitud": -73.991547, "location": {"type": "Point", "coordinates": [-73.991547, 40.730017]}}, {"tipo": "Starbucks", "nombre": "Starbucks", "latitud": 40.729569, "longitud": -73.996229, "location": {"type": "Point", "coordinates": [-73.996229, 40.729569]}}, {"tipo": "Starbucks", "nombre": "Starbucks", "latitud": 40.724759, "longitud": -73.987611, "location": {"type": "Point", "coordinates": [-73.987611, 40.724759]}}, {"tipo": "Starbucks", "nombre": "Starbucks", "latitud": 40.733037, "longitud": -73.980964, "location": {"type": "Point", "coordinates": [-73.980964, 40.733037]}}, {"tipo": "Starbucks", "nombre": "Starbucks", "latitud": 40.735054, "longitud": -73.98980399999999, "location": {"type": "Point", "coordinates": [-73.98980399999999, 40.735054]}}, {"tipo": "Starbucks", "nombre": "Starbucks", "latitud": 40.737046, "longitud": -73.996526, "location": {"type": "Point", "coordinates": [-73.996526, 40.737046]}}, {"tipo": "Starbucks", "nombre": "Starbucks", "latitud": 40.73798, "longitud": -73.988304, "location": {"type": "Point", "coordinates": [-73.988304, 40.73798]}}, {"tipo": "Starbucks", "nombre": "Starbucks Reserve", "latitud": 40.730031, "longitud": -73.994242, "location": {"type": "Point", "coordinates": [-73.994242, 40.730031]}}, {"tipo": "Starbucks", "nombre": "Starbucks", "latitud": 40.734364, "longitud": -73.99237, "location": {"type": "Point", "coordinates": [-73.99237, 40.734364]}}, {"tipo": "Starbucks", "nombre": "Starbucks", "latitud": 40.736534, "longitud": -73.978369, "location": {"type": "Point", "coordinates": [-73.978369, 40.736534]}}, {"tipo": "Starbucks", "nombre": "Starbucks Reserve", "latitud": 40.731343, "longitud": -73.991985, "location": {"type": "Point", "coordinates": [-73.991985, 40.731343]}}, {"tipo": "Starbucks", "nombre": "Starbucks", "latitud": 40.733082, "longitud": -73.999734, "location": {"type": "Point", "coordinates": [-73.999734, 40.733082]}}, {"tipo": "Starbucks", "nombre": "Starbucks", "latitud": 40.722553, "longitud": -73.997942, "location": {"type": "Point", "coordinates": [-73.997942, 40.722553]}}, {"tipo": "Starbucks", "nombre": "Starbucks", "latitud": 40.7402132, "longitud": -73.9869456, "location": {"type": "Point", "coordinates": [-73.9869456, 40.7402132]}}, {"tipo": "Starbucks", "nombre": "Starbucks", "latitud": 40.726835, "longitud": -74.000193, "location": {"type": "Point", "coordinates": [-74.000193, 40.726835]}}, {"tipo": "Starbucks", "nombre": "Starbucks", "latitud": 40.74054, "longitud": -73.98422099999999, "location": {"type": "Point", "coordinates": [-73.98422099999999, 40.74054]}}, {"tipo": "bar", "nombre": "Sl\u00e1inte Bar and Lounge", "latitud": 40.7247919, "longitud": -73.9927436, "location": {"type": "Point", "coordinates": [-73.9927436, 40.7247919]}}, {"tipo": "bar", "nombre": "Bleecker Street Bar", "latitud": 40.7259889, "longitud": -73.9950415, "location": {"type": "Point", "coordinates": [-73.9950415, 40.7259889]}}, {"tipo": "bar", "nombre": "Milano's Bar", "latitud": 40.7246208, "longitud": -73.99457550000001, "location": {"type": "Point", "coordinates": [-73.99457550000001, 40.7246208]}}, {"tipo": "bar", "nombre": "Park Bar", "latitud": 40.7364378, "longitud": -73.9921394, "location": {"type": "Point", "coordinates": [-73.9921394, 40.7364378]}}, {"tipo": "bar", "nombre": "The Central Bar", "latitud": 40.73045399999999, "longitud": -73.989948, "location": {"type": "Point", "coordinates": [-73.989948, 40.73045399999999]}}, {"tipo": "bar", "nombre": "Bar None", "latitud": 40.7324194, "longitud": -73.98816670000001, "location": {"type": "Point", "coordinates": [-73.98816670000001, 40.7324194]}}, {"tipo": "bar", "nombre": "310 Bowery Bar", "latitud": 40.724951, "longitud": -73.9926128, "location": {"type": "Point", "coordinates": [-73.9926128, 40.724951]}}, {"tipo": "bar", "nombre": "Tom and Jerry's", "latitud": 40.7246306, "longitud": -73.99321669999999, "location": {"type": "Point", "coordinates": [-73.99321669999999, 40.7246306]}}, {"tipo": "bar", "nombre": "International Bar", "latitud": 40.7265041, "longitud": -73.9858036, "location": {"type": "Point", "coordinates": [-73.9858036, 40.7265041]}}, {"tipo": "bar", "nombre": "Juke Bar", "latitud": 40.7310928, "longitud": -73.9855901, "location": {"type": "Point", "coordinates": [-73.9855901, 40.7310928]}}, {"tipo": "bar", "nombre": "Barfly", "latitud": 40.737118, "longitud": -73.9846214, "location": {"type": "Point", "coordinates": [-73.9846214, 40.737118]}}, {"tipo": "bar", "nombre": "12th Street Ale House", "latitud": 40.7310232, "longitud": -73.985573, "location": {"type": "Point", "coordinates": [-73.985573, 40.7310232]}}, {"tipo": "bar", "nombre": "Lucky", "latitud": 40.727255, "longitud": -73.9798419, "location": {"type": "Point", "coordinates": [-73.9798419, 40.727255]}}, {"tipo": "bar", "nombre": "Amor Y Amargo", "latitud": 40.7256845, "longitud": -73.98417710000001, "location": {"type": "Point", "coordinates": [-73.98417710000001, 40.7256845]}}, {"tipo": "bar", "nombre": "Old Town Bar", "latitud": 40.7376111, "longitud": -73.9891583, "location": {"type": "Point", "coordinates": [-73.9891583, 40.7376111]}}, {"tipo": "bar", "nombre": "Keybar", "latitud": 40.7299405, "longitud": -73.9819054, "location": {"type": "Point", "coordinates": [-73.9819054, 40.7299405]}}, {"tipo": "bar", "nombre": "Triona's", "latitud": 40.7355358, "longitud": -73.9859184, "location": {"type": "Point", "coordinates": [-73.9859184, 40.7355358]}}, {"tipo": "bar", "nombre": "11th St. Bar", "latitud": 40.7280546, "longitud": -73.9812525, "location": {"type": "Point", "coordinates": [-73.9812525, 40.7280546]}}, {"tipo": "bar", "nombre": "Tile Bar", "latitud": 40.727151, "longitud": -73.9858603, "location": {"type": "Point", "coordinates": [-73.9858603, 40.727151]}}, {"tipo": "bar", "nombre": "Phebe's", "latitud": 40.7268789, "longitud": -73.9913704, "location": {"type": "Point", "coordinates": [-73.9913704, 40.7268789]}}]